[
	{
		"id": 1,
		"name": "Squatwit",
		"lon": "-0.3338763",
		"lat": "53.7381844",
		"image": "Squatwit.JPG"
	}, {
		"id": 2,
		"name": "Typographical Toad",
		"lon": "-0.3317974",
		"lat": "53.7397322",
		"image": "Typographical.JPG"
	}, {
		"name": "Reflective Colours",
		"lon": "-0.3343908",
		"lat": "53.7404014",
		"image": "Reflective Colours.JPG"
	}, {
		"id": 3,
		"name": "Tigger the Toad",
		"lon": "-0.33751",
		"lat": "53.7407652",
		"image": "Tigger the Toad.JPG"
	}, {
		"id": 4,
		"name": "Weather Rain or Shine",
		"lon": "-0.3373671",
		"lat": "53.7447153",
		"image": "Weather Rain or Shine.JPG"
	}, {
		"id": 5,
		"name": "Fish \u0026 Chips Toad",
		"lon": "-0.3360635",
		"lat": "53.7386604",
		"image": "Fish and Chips.JPG"
	}, {
		"id": 6,
		"name": "Archi-toad",
		"lon": "-0.3391777",
		"lat": "53.7399622",
		"image": "Archi-toad.JPG"
	}, {
		"id": 7,
		"name": "Harlequin Mischievous Man of Mystery",
		"lon": "-0.3373184",
		"lat": "53.7446808",
		"image": "Harlequin.JPG"
	}, {
		"id": 8,
		"name": "Lobelia Toad",
		"lon": "-0.3338008",
		"lat": "53.745785",
		"image": "Lobelia.JPG"
	}
]