[{
	"name" : "Squatwit",
	"lon" : "-0.3338763",
	"lat" : "53.7381844",
	"artist" : "Ruth Pickard",
	"designer" : "",
	"sponsor" : "Kingswood Parks Development Live and play in Kingswood Parks",
	"pic" : "Squatwit.JPG"
}, {
	"name" : "Typographical Toad",
	"lon" : "-0.3317974",
	"lat" : "53.7397322",
	"artist" : "Saul Logan \u0026 Alec Tear",
	"designer" : "",
	"sponsor" : "ispace and cpd plc",
	"pic" : "Typographical.JPG"
}, {
	"name" : "Reflective Colours",
	"lon" : "-0.3343908",
	"lat" : "53.7404014",
	"artist" : "Sue Kershaw",
	"designer" : "Victoria Merrett",
	"sponsor" : "Arc The Architecture Centre for Hull and the Humber Region",
	"pic" : "Reflective Colours.JPG"
}, {
	"name" : "Tigger the Toad",
	"lon" : "-0.33751",
	"lat" : "53.7407652",
	"artist" : "Jayne Tunnicliffe",
	"designer" : "",
	"sponsor" : "Construction Works Ltd",
	"pic" : "Tigger the Toad.JPG"
}, {
	"name" : "Weather Rain or Shine",
	"lon" : "-0.3373671",
	"lat" : "53.7447153",
	"artist" : "Richard Pennington",
	"designer" : "Paul Hudson",
	"sponsor" : "Yorkshire Water",
	"pic" : "Weather Rain or Shine.JPG"
}, {
	"name" : "Fish \u0026 Chips Toad",
	"lon" : "-0.3360635",
	"lat" : "53.7386604",
	"artist" : "Emily Fisher",
	"designer" : "",
	"sponsor" : "Adopt Me",
	"pic" : "Fish and Chips.JPG"
}, {
	"name" : "Archi-toad",
	"lon" : "-0.3391777",
	"lat" : "53.7399622",
	"artist" : "Hannah Cooper",
	"designer" : "",
	"sponsor" : "Manor Property Group building success in Hull",
	"pic" : "Archi-toad.JPG"
}, {
	"name" : "Harlequin Mischievous Man of Mystery",
	"lon" : "-0.3373184",
	"lat" : "53.7446808",
	"artist" : "Jayne Tunnicliffe",
	"designer" : "Peter Levy",
	"sponsor" : "Manor Property Group building success in Hull",
	"pic" : "Harlequin.JPG"
}, {
	"name" : "Lobelia Toad",
	"lon" : "-0.3338008",
	"lat" : "53.745785",
	"artist" : "Kerry Watson",
	"designer" : "",
	"sponsor" : "Chevin Housing Group Building a better future for people and communities",
	"pic" : "Lobelia.JPG"
}, {
	"name" : "Tiger Toad",
	"lon" : "-0.3386078",
	"lat" : "53.7437044",
	"artist" : "Domanic Li",
	"designer" : "",
	"sponsor" : "Hull City AFC",
	"pic" : "Tiger Toad.JPG"
}, {
	"name" : "The Carnegie Toad",
	"lon" : "-0.3723721",
	"lat" : "53.7441317",
	"artist" : "Lynne Hutchinson",
	"designer" : "Carnegie Heritage Volunteers",
	"sponsor" : "Hull CIB",
	"pic" : "Carnegie.JPG"
}, {
	"name" : "The Newington Toad",
	"lon" : "-0.3794231",
	"lat" : "53.7360118",
	"artist" : "Newington Primary School After School Club",
	"designer" : "Arc Tech Team",
	"sponsor" : "Arc and Newington St Andrews",
	"pic" : "Newington.JPG"
}, {
	"name" : "Topographical Toad",
	"lon" : "-0.3748406",
	"lat" : "53.7369558",
	"artist" : "Ken Shaw",
	"designer" : "",
	"sponsor" : "Keepmoat Homes Yorkshire Ltd",
	"pic" : "Topographical.JPG"
}, {
	"name" : "The St George\u0027s Toad",
	"lon" : "-0.375668",
	"lat" : "53.7416978",
	"artist" : "St George\u0027s Primary School",
	"designer" : "Arc Creative Team",
	"sponsor" : "Arc and Newington St Andrews",
	"pic" : "St George.JPG"
}, {
	"name" : "Global Pop Toad",
	"lon" : "-0.3698785",
	"lat" : "53.7695779",
	"artist" : "Mark Wigan",
	"designer" : "",
	"sponsor" : "Hull University Business School",
	"pic" : "Global Pop.JPG"
}, {
	"name" : "Hull Poem Toad",
	"lon" : "-0.3607152",
	"lat" : "53.7524275",
	"artist" : "Lonny Pop",
	"designer" : "",
	"sponsor" : "Princes Avenue Traders Association and Jacksons Bakery Ltd",
	"pic" : "Hull Poem.JPG"
}, {
	"name" : "Floral",
	"lon" : "-0.3561103",
	"lat" : "53.7582149",
	"artist" : "Gemma Chaikin",
	"designer" : "Daycare Services West",
	"sponsor" : "Learning Disability Partnership Board \u0026 BS Construction (North East) Ltd",
	"pic" : "Floral.JPG"
}, {
	"name" : "Twinkle Toad",
	"lon" : "-0.3598148",
	"lat" : "53.7546083",
	"artist" : "Rick Welton",
	"designer" : "",
	"sponsor" : "Bonus Electrical",
	"pic" : "Twinkle.JPG"
}, {
	"name" : "Heat Toad",
	"lon" : "-0.34321",
	"lat" : "53.746604",
	"artist" : "Alec Tear and Saul Logan",
	"designer" : "Selected by pupils of Ganton School",
	"sponsor" : "Balfour Beatty Construction Northern Limited",
	"pic" : "Heat Toad.JPG"
}, {
	"name" : "Eastwest",
	"lon" : "-0.346187",
	"lat" : "53.745725",
	"artist" : "Sarah Fallowfield",
	"designer" : "Sarah Daniels",
	"sponsor" : "St Stephens Shopping Centre",
	"pic" : "Eastwest.JPG"
}, {
	"name" : "Punkphibian",
	"lon" : "-0.346079",
	"lat" : "53.746238",
	"artist" : "Liz Dees",
	"designer" : "",
	"sponsor" : "Signs Display.com Hull City Vision Arts and Creative Industries Group",
	"pic" : "Punkphibian.JPG"
}, {
	"name" : "Kiss Me Quick",
	"lon" : "-0.343314",
	"lat" : "53.745233",
	"artist" : "Stephen MacKay",
	"designer" : "",
	"sponsor" : "Prospect Shopping Centre",
	"pic" : "Kiss Me Quick.JPG"
}, {
	"name" : "Tequila Toad",
	"lon" : "-0.347298",
	"lat" : "53.748535",
	"artist" : "Quentin Budworth",
	"designer" : "",
	"sponsor" : "nPower",
	"pic" : "Tequila Toad.JPG"
}, {
	"name" : "Toad in the Hull",
	"lon" : "-0.335115",
	"lat" : "53.747808",
	"artist" : "Sarah Fisher",
	"designer" : "Janis Goodman",
	"sponsor" : "Kier Building Maintenance Hull",
	"pic" : "Toad in the Hull.JPG"
}, {
	"name" : "Hull Folk",
	"lon" : "-0.338045",
	"lat" : "53.74745",
	"artist" : "Ragna Blades and Dominic Li",
	"designer" : "Jean Hartley",
	"sponsor" : "Frank Haslam Milan \u0026 Co Ltd",
	"pic" : "Hull Folk.JPG"
}, {
	"name" : "Space Hopper",
	"lon" : "-0.345229",
	"lat" : "53.744831",
	"artist" : "Liz Dees",
	"designer" : "NaSA Young People\u0027s Project",
	"sponsor" : "Hull CIB",
	"pic" : "Space Hopper.JPG"
}, {
	"name" : "Magenta Toad",
	"lon" : "-0.53137",
	"lat" : "53.72204",
	"artist" : "Ragna Blades",
	"designer" : "",
	"sponsor" : "Wykeland Group Ltd",
	"pic" : "Magenta Toad.JPG"
}, {
	"name" : "Tannery Toad",
	"lon" : "-0.4198034",
	"lat" : "53.8386651",
	"artist" : "Sarah Johnson",
	"designer" : "St Nicholas Primary School",
	"sponsor" : "Wykeland Group Ltd and Quintain Estates and Developments plc",
	"pic" : "Tannery Toad.JPG"
}, {
	"name" : "Labyrinth on My Back",
	"lon" : "-0.324245",
	"lat" : "53.791324",
	"artist" : "Gemma Chaikin",
	"designer" : "",
	"sponsor" : "Riverside ECHG",
	"pic" : "Labyrinth.JPG"
}, {
	"name" : "Cityscape",
	"lon" : "-0.298002",
	"lat" : "53.766066",
	"artist" : "Ruth Piggott",
	"designer" : "Daycare Services East",
	"sponsor" : "Learning Disability Partnership Board \u0026 PBS Construction (North East Ltd)",
	"pic" : "Cityscape.JPG"
}, {
	"name" : "10 - 5 Toad",
	"lon" : "-0.292341",
	"lat" : "53.762618",
	"artist" : "Steve Elliott",
	"designer" : "Steve Hubbard",
	"sponsor" : "Neil Hudgell Law",
	"pic" : "10 - 5 Toad.JPG"
}, {
	"name" : "Three Quarters Sky",
	"lon" : "-0.393841",
	"lat" : "53.74925",
	"artist" : "Sarah Fallowfield",
	"designer" : "Sarah Daniels",
	"sponsor" : "Hull Citycare Ltd",
	"pic" : "Three quarters sky.JPG"
}, {
	"name" : "Neat Toad",
	"lon" : "-0.335649",
	"lat" : "53.741777",
	"artist" : "Sarah Pennington",
	"designer" : "Nick and Mez of The Neat",
	"sponsor" : "Tesco",
	"pic" : "Neat.JPG"
}, {
	"name" : "Maritime Toad",
	"lon" : "-0.330122",
	"lat" : "53.73869",
	"artist" : "Pinkyvision",
	"designer" : "",
	"sponsor" : "The Deep Aquarium",
	"pic" : "Maritime Toad.JPG"
}, {
	"name" : "Kasey Toad",
	"lon" : "-0.340401",
	"lat" : "53.743476",
	"artist" : "Emily Fisher",
	"designer" : "Ian Nicholl",
	"sponsor" : "KC",
	"pic" : "Kasey.JPG"
}, {
	"name" : "Hull Fair Toad",
	"lon" : "-0.338072",
	"lat" : "53.742048",
	"artist" : "Pinkyvision",
	"designer" : "",
	"sponsor" : "KIngstown Works Ltd",
	"pic" : "Hull Fair.JPG"
}, {
	"name" : "Teletoad",
	"lon" : "-0.344404",
	"lat" : "53.744522",
	"artist" : "Michelle Roper",
	"designer" : "",
	"sponsor" : "KC",
	"pic" : "Teletoad.JPG"
}, {
	"name" : "The Chiltern Toad",
	"lon" : "-0.343006",
	"lat" : "53.744642",
	"artist" : "Chiltern Primary School Parent and Childrens Craft",
	"designer" : "Arc Creative Team",
	"sponsor" : "Arc and Newington St Andrews",
	"pic" : "Chiltern.JPG"
}, {
	"name" : "The Hidden Toad",
	"lon" : "-0.339788",
	"lat" : "53.744036",
	"artist" : "Sasha Heath",
	"designer" : "",
	"sponsor" : "Public Donation",
	"pic" : "Hidden.JPG"
}, {
	"name" : "The Larkin Toad",
	"lon" : "-0.339363",
	"lat" : "53.742273",
	"artist" : "Frances Kelly",
	"designer" : "",
	"sponsor" : "Princes Quay Shopping Centre Trust",
	"pic" : "Larkin.JPG"
}]